Time(s),Actuator_0_Deflection,Actuator_0_TargetDeflection,Actuator_1_Deflection,Actuator_1_TargetDeflection,Actuator_2_Deflection,Actuator_2_TargetDeflection,Actuator_3_Deflection,Actuator_3_TargetDeflection,PitchError,RollError,YawError
0.01,0.0,109.63511003572036,0.0,-9.215941192496081e-20,0.0,-109.63511003572036,0.0,-9.916633978316292e-20,0.09966823654691098,9.332735870253103e-22,3.1849657605619748e-24
0.02,4.282316188381817,9.965464995125167,-8.770127591066843e-21,-2.8720354688560193e-19,-4.282316188381817,-9.965464995125167,-9.436924937689119e-21,-3.275196387048526e-19,0.0996668654912426,3.909019634934008e-21,2.122090715887995e-23
0.03,4.823139302517369,9.96385633049408,-3.526657067621106e-20,-4.400431216564284e-19,-4.823139302517369,-9.96385633049408,-3.970649725790121e-20,-4.68207308690819e-19,0.09966406604963783,8.243730320732808e-21,3.209360020309295e-23
0.04,5.3123432080461415,9.961687236311363,-7.37861523859876e-20,-6.264051225219144e-19,-5.3123432080461415,-9.961687236311363,-8.04837408475441e-20,-7.359301395883154e-19,0.09965945859731982,1.4687205024371916e-20,7.896001159710407e-23
0.05,5.754786790214952,9.958944964100032,-1.263748004264314e-19,-8.43521804550162e-19,-5.754786790214952,-9.958944964100032,-1.4285771249074791e-19,-1.1246689438235384e-18,0.09965268643313632,2.3927972590729068e-20,1.9957576907856642e-22
0.060000000000000005,6.154865337027082,9.95555013185586,-1.94620360986622e-19,-1.065812364957313e-18,-6.154865337027082,-9.95555013185586,-2.362894042656701e-19,-1.5915987786626005e-18,0.09964335312000228,3.630393721984415e-20,4.2042584607548493e-22
0.07,6.516548315334457,9.951419161155073,-2.7752524147089956e-19,-1.288106505137291e-18,-6.516548315334457,-9.951419161155073,-3.652641436933504e-19,-2.136144740670152e-18,0.09963102228270906,5.2116575880551676e-20,7.676762041297396e-22
0.08,6.843419493735754,9.946464974026888,-3.7369476380587603e-19,-1.5040850379829989e-18,-6.843419493735754,-9.946464974026888,-5.33785713651684e-19,-2.752744021970303e-18,0.09961521805767128,7.160187809527111e-20,1.2654577638701866e-21
0.09,7.138713313592104,9.940597340993307,-4.812656209236106e-19,-1.7082419179800232e-18,-7.138713313592104,-9.940597340993307,-7.44947515541843e-19,-3.4464752967450132e-18,0.09959542581822281,9.498780809178177e-20,1.940518813089279e-21
0.09999999999999999,7.4053478320034065,9.933721931029607,-5.980278533601762e-19,-1.892030878288576e-18,-7.4053478320034065,-9.933721931029607,-1.0020318744487218e-18,-4.225342118257421e-18,0.09957109197034003,1.2249392698177066e-19,2.8246984469187243e-21
0.10999999999999999,7.645954439437744,9.925741831295012,-7.211685222816412e-19,-2.0532869972472374e-18,-7.645954439437744,-9.925741831295012,-1.308770399720698e-18,-5.0909300333671465e-18,0.09954162514854373,1.5433140837391402e-19,3.948645851675841e-21
0.11999999999999998,7.862904893975947,9.916557410992283,-8.479363558413673e-19,-2.1794356573372696e-18,-7.862904893975947,-9.916557410992283,-1.668690475858663e-18,-6.0550361353357296e-18,0.09950639717935264,1.9070226628666515e-19,5.3513017386963824e-21
0.12999999999999998,8.058335769952173,9.906066544656063,-9.746452672550335e-19,-2.2225320160232958e-18,-8.058335769952173,-9.906066544656063,-2.0861064542012622e-18,-6.975307303973413e-18,0.09946474416017266,2.308751015209817e-19,7.02515365121336e-21
0.13999999999999999,8.234170601247412,9.894164826091526,-1.0933973922665332e-18,-2.133450989969424e-18,-8.234170601247412,-9.894164826091526,-2.551375430806361e-18,-7.705926836185432e-18,0.09941596763462683,2.731852734777938e-19,8.919421123361121e-21
0.15,8.392139937728974,9.880745773471451,-1.1923715780049298e-18,-1.999779994786982e-18,-8.392139937728974,-9.880745773471451,-3.041895851408607e-18,-8.52804316175167e-18,0.09935933584751988,3.178073454712156e-19,1.107592215504336e-20
0.16,8.533799512584967,9.865701030898753,-1.269206647645408e-18,-1.8564463482454872e-18,-8.533799512584967,-9.865701030898753,-3.563971794495929e-18,-9.594936681754839e-18,0.09929408506898342,3.6582957028861677e-19,1.3586469685733043e-20
0.17,8.660546699989533,9.848920569482749,-1.3250898937863016e-18,-1.7343550828868882e-18,-8.660546699989533,-9.848920569482749,-4.137893984901955e-18,-1.106819381100497e-17,0.09921942098106934,4.192524259832041e-19,1.6593930265545836e-20
0.18000000000000002,8.773635425749106,9.830292890614718,-1.3640366258891147e-18,-1.5383240099922819e-18,-8.773635425749106,-9.830292890614718,-4.797399210138859e-18,-1.2671597048172695e-17,0.09913452012311237,4.782156258023829e-19,2.0145893324575076e-20
0.19000000000000003,8.874189678357295,9.809705233826172,-1.3806222633641305e-18,-1.2583005423280608e-18,-8.874189678357295,-9.809705233826172,-5.546728207301824e-18,-1.4413347249766897e-17,0.09903853139468394,5.428461691623386e-19,2.4293918482531937e-20
0.20000000000000004,8.963215754083237,9.787043791342503,-1.368981812560053e-18,-8.861702520769647e-19,-8.963215754083237,-9.787043791342503,-6.3904985686743284e-18,-1.6299496465568204e-17,0.09893057761698702,6.132576183262602e-19,2.9091316862864114e-20
0.21000000000000005,9.041613357203197,9.762193931209834,-1.3230362178623947e-18,-4.136510997275649e-19,-9.041613357203197,-9.762193931209834,-7.333464393218997e-18,-1.8336013358959214e-17,0.0988097571551716,6.895491965689501e-19,3.459303010016311e-20
0.22000000000000006,9.110185665138799,9.735040430659511,-1.2364967820210104e-18,1.676996813167614e-19,-9.110185665138799,-9.735040430659511,-8.38049536098462e-18,-2.052875321038387e-17,0.09867514560533784,7.718047963199446e-19,4.085550358131461e-20
0.23000000000000007,9.169648457978285,9.705467721187228,-1.102869820985014e-18,8.664786536523408e-19,-9.169648457978285,-9.705467721187228,-9.536554944298374e-18,-2.2883426475914098e-17,0.09852579755099455,8.600918927099368e-19,4.793655376681982e-20
0.24000000000000007,9.220638402531318,9.673360146646578,-9.154615353515787e-19,1.6740252254779238e-18,-9.220638402531318,-9.673360146646578,-1.0806677700389274e-17,-2.5388313498242253e-17,0.09836074839448827,9.544610974101828e-19,5.587947656188065e-20
0.25000000000000006,9.26372057261259,9.63860223550121,-6.69039289229344e-19,2.6063926858123267e-18,-9.26372057261259,-9.63860223550121,-1.2194303812172241e-17,-2.8055803657840903e-17,0.09817901626945738,1.0549436174869578e-18,6.473655955916181e-20
0.26000000000000006,9.299395279584044,9.601078988224538,-3.5734072543680207e-19,3.6805363121787386e-18,-9.299395279584044,-9.601078988224538,-1.3703725091308301e-17,-3.089881667356789e-17,0.097979604040714,1.1615499147408823e-18,7.456891561878935e-20
0.2700000000000001,9.32810428023476,9.560676180698987,2.6914079116003782e-20,4.905617016553231e-18,-9.32810428023476,-9.560676180698987,-1.5340054403384263e-17,-3.392214656310672e-17,0.09776150139814886,1.2742685954403863e-18,8.543844412142965e-20
0.2800000000000001,9.35023642277522,9.517280684326575,4.91184047278079e-19,6.2909164095781374e-18,-9.35023642277522,-9.517280684326575,-1.7108374271597206e-17,-3.713026494299321e-17,0.0975236870513018,1.3930647830495079e-18,9.740766772692062e-20
0.2900000000000001,9.366132786006723,9.47078080343182,1.0431015535749563e-18,7.84582939840122e-18,-9.366132786006723,-9.47078080343182,-1.9013709083688986e-17,-4.0527281011531624e-17,0.09726513103116464,1.5178783727361456e-18,1.1053956241833576e-19
0.3000000000000001,9.376091361542313,9.421066630405727,1.690466699687296e-18,9.579857003469842e-18,-9.376091361542313,-9.421066630405727,-2.106099613561159e-17,-4.411690077498804e-17,0.09698479710559436,1.6486221658728397e-18,1.248973811976138e-19
0.3100000000000001,9.380371324251882,9.368030418911312,2.4412414511173087e-18,1.1502599290126162e-17,-9.380371324251882,-9.368030418911312,-2.3255055550611354e-17,-4.7902385376489366e-17,0.09668164531442536,1.7851798826140172e-18,1.4054447165436875e-19
0.3200000000000001,9.3791969318359,9.31156697533775,3.3035436591774895e-18,1.3623748497971837e-17,-9.3791969318359,-9.31156697533775,-2.560055909536121e-17,-5.188650872397737e-17,0.09635463462998668,1.927404051239425e-18,1.575440877363161e-19
0.3300000000000001,9.37276109055742,9.251574068560643,4.285640998034944e-18,1.59530824618647e-17,-9.37276109055742,-9.251574068560643,-2.8101997931397036e-17,-5.607151464266792e-17,0.09600272574826307,2.075113773633351e-18,1.7595919616504076e-19
0.34000000000000014,9.361228620643674,9.18795285792828,5.395944852647288e-18,1.8592712284641733e-17,-9.361228620643674,-9.18795285792828,-3.076364935792795e-17,-6.017241548031885e-17,0.09562488401538957,2.2262440599967216e-18,1.9576391243539015e-19
0.35000000000000014,9.34473925167189,9.120608339257178,6.651783315054839e-18,2.148482329380347e-17,-9.34473925167189,-9.120608339257178,-3.3562263474511267e-17,-6.430329344766105e-17,0.09522008249354606,2.379618669348955e-18,2.169602800685766e-19
0.36000000000000015,9.32341037534855,9.04944980847585,8.063333697808395e-18,2.459963089562054e-17,-9.32341037534855,-9.04944980847585,-3.6487659258990157e-17,-6.860962463113356e-17,0.09478730516962,2.5349448773214857e-18,2.3960274256341293e-19
0.37000000000000016,9.297339580448611,8.974391342411364,9.636970435276926e-18,2.792358219209185e-17,-9.297339580448611,-8.974391342411364,-3.954446842156282e-17,-7.306772894082468e-17,0.09432555030923974,2.6918876112009165e-18,2.6372386859487834e-19
0.38000000000000017,9.266606992276248,8.895352296057402,1.1377171625429413e-17,3.1480672765945655e-17,-9.266606992276248,-8.895352296057402,-4.2734628448428964e-17,-7.769029781188184e-17,0.09383383395794305,2.850064759060615e-18,2.893699406012568e-19
0.3900000000000002,9.231277436817788,8.812257815508646,1.3290272700477972e-17,3.529641253506108e-17,-9.231277436817788,-8.812257815508646,-4.6061100199336445e-17,-8.24907339476684e-17,0.09331119359034376,3.009044419512898e-18,3.1660071966807434e-19
0.4000000000000002,9.191402447760415,8.725039365580669,1.5384433786198623e-17,3.9357771866380974e-17,-9.191402447760415,-8.725039365580669,-4.952783820683206e-17,-8.753792431477993e-17,0.0927566919071892,3.168804779904367e-18,3.454959222750855e-19
0.4100000000000002,9.147022132727482,8.63363527096693,1.766579853620563e-17,4.3652329827175217e-17,-9.147022132727482,-8.63363527096693,-5.314497614153989e-17,-9.290259895323447e-17,0.0921694207791668,3.3297301266430076e-18,3.761545205309166e-19
0.4200000000000002,9.098166913415932,8.537991269609494,2.0138743950143626e-17,4.8239870741734664e-17,-9.098166913415932,-8.537991269609494,-5.692841418105318e-17,-9.844488964276169e-17,0.09154850533521872,3.4912214162282834e-18,4.0863008568143593e-19
0.4300000000000002,9.044859152797942,8.438061076780036,2.2812919731730302e-17,5.3137343202803795e-17,-9.044859152797942,-8.438061076780036,-6.087922918003609e-17,-1.041423904807566e-16,0.09089310819196025,3.652502234158669e-18,4.429688365910634e-19
0.4400000000000002,8.987114681153265,8.333806958182064,2.5698670165808605e-17,5.835692160323352e-17,-8.987114681153265,-8.333806958182064,-6.499626331333941e-17,-1.0998488807508888e-16,0.09020243381957167,3.812705925569308e-18,4.792136800599272e-19
0.45000000000000023,8.924944231418278,8.225200310194605,2.8806513695024794e-17,6.389153433922398e-17,-8.924944231418278,-8.225200310194605,-6.927749700467886e-17,-1.1601650739906133e-16,0.08947573303824488,3.971236779991659e-18,5.174204629524488e-19
0.46000000000000024,8.858354793160991,8.112230317128276,3.214529484778845e-17,6.97338991399527e-17,-8.858354793160991,-8.112230317128276,-7.372530191225242e-17,-1.2218351807398696e-16,0.0887123149760475,4.127287141645605e-18,5.576122203288189e-19
0.47000000000000025,8.787351661555151,7.994873048258966,3.572232348465541e-17,7.589833435070608e-17,-8.787351661555151,-7.994873048258966,-7.833671087957467e-17,-1.2865789872034636e-16,0.08791152984605739,4.280838249642868e-18,5.998945717393011e-19
0.48000000000000026,8.711937350562604,7.8731383010733875,3.954557641168414e-17,8.239794373857194e-17,-8.711937350562604,-7.8731383010733875,-8.312540504199999e-17,-1.3534171111386692e-16,0.08707279587393145,4.431330267996619e-18,6.443249719133044e-19
0.49000000000000027,8.632115067264227,7.747040033783872,4.362351832978227e-17,8.92693939671947e-17,-8.632115067264227,-7.747040033783872,-8.809444354842345e-17,-1.4215713034232138e-16,0.08619559689792068,4.577658695927167e-18,6.909369421601997e-19
0.5000000000000002,8.547889041846327,7.616604291659382,4.796729771144791e-17,9.650777905984198e-17,-8.547889041846327,-7.616604291659382,-9.323918841164399e-17,-1.4907624927584571e-16,0.08527948739275941,4.71863400306615e-18,7.397460393588271e-19
0.5100000000000002,8.459265580474801,7.4818697799483544,5.2586535246338436e-17,1.0410697634371575e-16,-8.459265580474801,-7.4818697799483544,-9.85527872927647e-17,-1.5606877169035477e-16,0.08432409755760961,4.852978044520755e-18,7.907498500859856e-19
0.5200000000000002,8.366254072495893,7.342888425186757,5.748935344509113e-17,1.1208971445480192e-16,-8.366254072495893,-7.342888425186757,-1.0402615687224283e-16,-1.631319321490944e-16,0.08332913845167379,4.9793198452481975e-18,8.439552525037312e-19
0.5300000000000002,8.268867955204655,7.1997259209348154,6.268526477494393e-17,1.2044776274537826e-16,-8.268867955204655,-7.1997259209348154,-1.0965081505657437e-16,-1.7023112473289372e-16,0.08229440715898237,5.096193634864348e-18,8.99349026324453e-19
0.5400000000000003,8.16712563873725,7.052462254152395,6.818209322250311e-17,1.2922703891176818e-16,-8.16712563873725,-7.052462254152395,-1.1541579374155406e-16,-1.7738443817705124e-16,0.08121979196209746,5.202034142484402e-18,9.569482449402346e-19
0.5500000000000003,8.06105139303938,6.901192208221475,7.399128787014819e-17,1.3843985196286773e-16,-8.06105139303938,-6.901192208221475,-1.2131288994684755e-16,-1.845756639556188e-16,0.08010527750268785,5.295175743470007e-18,1.0167666550976576e-18
0.5600000000000003,7.9506761982974,6.746025838427824,8.012437963308633e-17,1.4809870145716332e-16,-7.9506761982974,-6.746025838427824,-1.2733313886372982e-16,-1.9178783617011926e-16,0.07895094990512698,5.373850366820125e-18,1.0788147216623235e-18
0.5700000000000003,7.836038559688301,6.587088915530233,8.659299160512012e-17,1.5821627335666783e-16,-7.836038559688301,-6.587088915530233,-1.3346681427911653e-16,-1.9900328440956715e-16,0.0777570018374594,5.436185736719879e-18,1.1430996904595382e-18
0.5800000000000003,7.71718528680715,6.424523332869673,9.340884802533535e-17,1.6880543206334568e-16,-7.71718528680715,-6.424523332869673,-1.3970343398953942e-16,-2.0620369829268945e-16,0.07652373748227959,5.480204015781501e-18,1.20962567112266e-18
0.5900000000000003,7.594172237663778,6.258487472313705,1.0058378163366117e-16,1.7987920542867547e-16,-7.594172237663778,-6.258487472313705,-1.460317708419183e-16,-2.133701980423446e-16,0.07525157738828575,5.503820903937849e-18,1.2783937376780326e-18
0.6000000000000003,7.467065026703032,6.0891565241871515,1.0812973889992754e-16,1.914507612729538e-16,-7.467065026703032,-6.0891565241871515,-1.5243986943970843e-16,-2.2048341041948392e-16,0.0739410631715215,5.504845249466451e-18,1.3494020438309332e-18
0.6100000000000003,7.3359396958934155,5.916722756218849,1.160587825208283e-16,2.0353337382903628e-16,-7.3359396958934155,-5.916722756218849,-1.5891506848531986e-16,-2.2752354918178257e-16,0.07259286203361683,5.480979230878817e-18,1.4226459490928374e-18
0.6200000000000003,7.20088334754688,5.741395726432762,1.243830904859666e-16,2.161403784141928e-16,-7.20088334754688,-5.741395726432762,-1.6544402865302528e-16,-2.344704990656299e-16,0.07120777106270108,5.429819170338123e-18,1.4981181510149794e-18
0.6300000000000003,7.0619947371771055,5.56340243483808,1.3311495091923447e-16,2.292851125380614e-16,-7.0619947371771055,-5.56340243483808,-1.7201276580135319e-16,-2.413039021220269e-16,0.06978672128110418,5.3488570407934106e-18,1.575808817877516e-18
0.6400000000000003,6.919384824375088,5.382987408727287,1.4226675180678112e-16,2.429808415792692e-16,-6.919384824375088,-5.382987408727287,-1.7860668924085081e-16,-2.480032450703469e-16,0.06833078140250505,5.235482730058364e-18,1.6557057152411833e-18
0.6500000000000004,6.773177279379165,5.2004127163761344,1.5185096462968926e-16,2.5717581589861683e-16,-6.773177279379165,-5.2004127163761344,-1.8521064467299735e-16,-2.544834292852799e-16,0.06684116125984904,5.086988756356628e-18,1.73773551515954e-18
0.6600000000000004,6.623508942742251,5.0159579039614,1.6187394942141895e-16,2.719098732746049e-16,-6.623508942742251,-5.0159579039614,-1.91802821716541e-16,-2.6075041464612165e-16,0.06531921486415922,4.900570197574856e-18,1.8218523710621114e-18
0.6700000000000004,6.470530235252889,4.829919850571799,1.7234525204408669e-16,2.872252606457988e-16,-6.470530235252889,-4.829919850571799,-1.9836405267992553e-16,-2.6681313864098723e-16,0.06376644305333341,4.673329979850125e-18,1.9080378680080038e-18
0.6800000000000004,6.314405515049619,4.64261253628747,1.832775302786768e-16,3.031341387193587e-16,-6.314405515049619,-4.64261253628747,-2.0487784443305871e-16,-2.726514131794176e-16,0.06218449568917023,4.4022859546806204e-18,1.996271614459955e-18
0.6900000000000004,6.155313378681258,4.454366718449559,1.946833946033451e-16,3.1964796263577095e-16,-6.155313378681258,-4.454366718449559,-2.1132735222387963e-16,-2.7824531778121327e-16,0.06057517336022875,4.084377868497043e-18,2.0865312229232606e-18
0.7000000000000004,5.993446902710498,4.265529511434325,2.0657534555133173e-16,3.367772732972695e-16,-5.993446902710498,-4.265529511434325,-2.1769543860609624e-16,-2.835752524503635e-16,0.05894042854772179,3.716475441689167e-18,2.1787922215295406e-18
0.7100000000000004,5.829013822336088,4.076463865489421,2.189656971723306e-16,3.5449903038831645e-16,-5.829013822336088,-4.076463865489421,-2.2396473179082704e-16,-2.885897023333136e-16,0.0572823662114952,3.2953883593053757e-18,2.272998472618569e-18
0.7200000000000004,5.662236643421592,3.8875479404867987,2.3186339910335645e-16,3.7278621560064765e-16,-5.662236643421592,-3.8875479404867987,-2.301146108470001e-16,-2.932347345978651e-16,0.055603243753282294,2.817875502018329e-18,2.3690621442523524e-18
0.7300000000000004,5.493352684267903,3.699174370798537,2.4527397817888335e-16,3.9170453955801756e-16,-5.493352684267903,-3.699174370798537,-2.361212847970222e-16,-2.9755073498210537e-16,0.05390547031486575,2.280654098708365e-18,2.466951613159361e-18
0.7400000000000004,5.32261404345427,3.511749417911399,2.592086884781657e-16,4.1125860499329277e-16,-5.32261404345427,-3.511749417911399,-2.419670698852661e-16,-3.015198200059724e-16,0.05219160536955527,1.6804147503296031e-18,2.5666320925636583e-18
0.7500000000000004,5.150287490100265,3.32569200786439,2.73678151121162e-16,4.3148768917674068e-16,-5.150287490100265,-3.32569200786439,-2.476342633498118e-16,-3.051614199639581e-16,0.05046435656652031,1.013835115448903e-18,2.6680986417542464e-18
0.7600000000000005,4.976654272970776,3.1414326511228925,2.8869571422108335e-16,4.523758857844298e-16,-4.976654272970776,-3.1414326511228925,-2.531086961062637e-16,-3.0844328860762203e-16,0.04872657678902655,2.775974954331977e-19,2.771324880031068e-18
0.7700000000000005,4.802009844959497,2.959412243092714,3.042719419633685e-16,4.738053692885561e-16,-4.802009844959497,-2.959412243092714,-2.58374478800621e-16,-3.112349812502377e-16,0.04698126038953335,-5.3159296743163965e-19,2.8761739733044914e-18
0.7800000000000005,4.626663499645105,2.780080744129118,3.2040518063684637e-16,4.95760954374077e-16,-4.626663499645105,-2.780080744129118,-2.63404820697643e-16,-3.135113988448992e-16,0.04523153856693673,-1.4169954899757366e-18,2.9825032144635103e-18
0.7900000000000005,4.450937916819931,2.603895738608072,3.370924888279833e-16,5.183206379493091e-16,-4.450937916819931,-2.603895738608072,-2.6817309204751886e-16,-3.1534438346114134e-16,0.04348067385400593,-2.3818160236842296e-18,3.0902509770795652e-18
0.8000000000000005,4.275168614144805,2.4313208733995957,3.5433862742293283e-16,5.415017837488892e-16,-4.275168614144805,-2.4313208733995957,-2.7266203393301736e-16,-3.167500359085146e-16,0.041732053686275895,-3.429184536323768e-18,3.1993764470121283e-18
0.8100000000000005,4.099703302386928,2.262824176913028,3.721495566274502e-16,5.653193829976269e-16,-4.099703302386928,-2.262824176913028,-2.768575620346414e-16,-3.1774716880240896e-16,0.03998918302733502,-4.5621319133993894e-18,3.309857884636413e-18
0.8200000000000005,3.9249011420509827,2.0988762607707843,3.905320960623816e-16,5.896886733952044e-16,-3.9249011420509827,-2.0988762607707843,-2.8074872259015646e-16,-3.1826033621325087e-16,0.03825567602959625,-5.783565425180692e-18,3.4216027035438682e-18
0.8300000000000005,3.7511318996177785,1.939948407105544,4.094843501764941e-16,6.145780806980219e-16,-3.7511318996177785,-1.9399484071055435,-2.843184245961676e-16,-3.182723576864104e-16,0.036535246714264086,-7.096246835544667e-18,3.53450457194551e-18
0.8400000000000005,3.578775002059666,1.786510545463363,4.2900159911755986e-16,6.397553955495813e-16,-3.5787750020596656,-1.7865105454633625,-2.875495685368694e-16,-3.175714818842866e-16,0.03483169865931224,-8.502766238769578e-18,3.6482650233469296e-18
0.8500000000000005,3.408218488807584,1.639029124326021,4.490574745447548e-16,6.632643847985051e-16,-3.4082184888075835,-1.6390291243260207,-2.904065313265103e-16,-3.187720895092905e-16,0.033148913689861906,-9.983350783568555e-18,3.762911881755958e-18
0.8600000000000005,3.2398578609001984,1.497964883335991,4.694419571990411e-16,6.889693138572194e-16,-3.239857860900198,-1.4979648833359906,-2.931058710820349e-16,-3.1677368094500127e-16,0.03149083957139191,-1.1562436235508572e-17,3.8779085165250864e-18
0.8700000000000006,3.074094827650158,1.3637705334081984,4.903327472703741e-16,7.111102687072212e-16,-3.0740948276501574,-1.363770533408198,-2.953581609780288e-16,-3.193901326828231e-16,0.029861476712704706,-1.3197644982309032e-17,3.993700700396388e-18
0.8800000000000006,2.9113359518142676,1.2368883530401487,5.113425062499258e-16,7.339921748409636e-16,-2.911335951814267,-1.2368883530401482,-2.9764510545514376e-16,-3.2055191804598336e-16,0.028264863892499652,-1.4898237132163188e-17,4.1098915893269415e-18
0.8900000000000006,2.751991194951435,1.1177477102749,5.325304235864869e-16,7.588560197849955e-16,-2.7519911949514344,-1.1177477102748996,-2.9982497688585443e-16,-3.184722869344659e-16,0.026705063030741685,-1.668801261888331e-17,4.225872342022255e-18
0.9000000000000006,2.596472365391705,1.0067625209247675,5.540681516852878e-16,7.785178187519276e-16,-2.5964723653917043,-1.006762520924767,-3.015995030567643e-16,-3.225895576886738e-16,0.025186143033731564,-1.8509103545595147e-17,4.342114163442828e-18
0.9100000000000006,2.445191472018578,0.904328654815724,5.754273615243185e-16,7.993006257969117e-16,-2.4451914720185774,-0.9043286548157236,-3.035969708511031e-16,-3.2437620700828377e-16,0.023712162749847877,-2.0377493350879337e-17,4.458043390282913e-18
0.9200000000000006,2.2985589878811687,0.8108213029550495,5.967317193852165e-16,8.184424601149933e-16,-2.2985589878811687,-0.8108213029550491,-3.0557437661506097e-16,-3.271182147584678e-16,0.022287153081300352,-2.2279271418200753e-17,4.573376692250346e-18
0.9300000000000006,2.156982028498395,0.7265923196475245,6.17830285922222e-16,8.370504693784981e-16,-2.156982028498395,-0.726592319647524,-3.0762454387820294e-16,-3.289980013136891e-16,0.020915098305863314,-2.421513173116085e-17,4.687533573542767e-18
0.9400000000000006,2.020862450589354,0.651967554677621,6.386918445985518e-16,8.578018086468562e-16,-2.020862450589354,-0.6519675546776206,-3.096584972732623e-16,-3.266882491695492e-16,0.01959991667139565,-2.6215039063602526e-17,4.799690783763087e-18
0.9500000000000006,1.890594877856997,0.5872441917252881,6.595429145114366e-16,8.780119113301184e-16,-1.890594877856997,-0.5872441917252876,-3.1127909243392e-16,-3.234907978971113e-16,0.018345440334942467,-2.827902223500517e-17,4.909380494117717e-18
0.9600000000000006,1.7665646613600998,0.5326881101814094,6.803329883277961e-16,8.974415082622303e-16,-1.7665646613600998,-0.5326881101814087,-3.1244118985598165e-16,-3.192351695702255e-16,0.017155394727292838,-3.040677067683428e-17,5.015991159546277e-18
0.9700000000000006,1.64914578292505,0.4885312884619372,7.009935956511482e-16,9.16030217756966e-16,-1.64914578292505,-0.48853128846193666,-3.130877225074004e-16,-3.139335280511607e-16,0.016033377432969946,-3.2597624420269096e-17,5.118944915862966e-18
0.9800000000000006,1.5386987109670507,0.454969267777943,7.214570358275634e-16,9.33719153566612e-16,-1.5386987109670505,-0.45496926777794233,-3.131682115467841e-16,-3.076034864205107e-16,0.014982836684684541,-3.485056337240712e-17,5.217697675031049e-18
0.9900000000000007,1.4355682190027232,0.43215869608861474,7.416564470047665e-16,9.489581601252398e-16,-1.435568219002723,-0.43215869608861407,-3.1263865793584775e-16,-3.0180538755885564e-16,0.014007049580213754,-3.7149416523374974e-17,5.311759446201966e-18
1.0000000000000007,1.3400811780349107,0.420214972635246,7.613838132708796e-16,9.615898439959374e-16,-1.3400811780349104,-0.4202149726352453,-3.1160773595565865e-16,-2.965269837190764e-16,0.013109100138396468,-3.9477697412810906e-17,5.400607678022706e-18
1.0100000000000007,1.2525443348676142,0.4192100140140063,7.804359360794481e-16,9.714466658905252e-16,-1.252544334867614,-0.41921001401400565,-3.1017261263486553e-16,-2.9174560942159783e-16,0.012291857319380782,-4.1818613961700565e-17,5.483680872090906e-18
1.0200000000000007,1.1732420892559348,0.4291701631823388,7.98613010311106e-16,9.805702960103368e-16,-1.1732420892559345,-0.42917016318233814,-3.084190514312313e-16,-2.850833927698133e-16,0.011557953142332978,-4.417734165326863e-17,5.56031576191263e-18
1.0300000000000007,1.1024342836038148,0.45007426309705445,8.159285354254134e-16,9.887782347786097e-16,-1.1024342836038143,-0.4500742630970538,-3.061983699011792e-16,-2.764073338798348e-16,0.010909761041432814,-4.6558687291449805e-17,5.629765975294451e-18
1.0400000000000007,1.0403540196822771,0.4818519168397996,8.323773591075716e-16,9.951195214746403e-16,-1.0403540196822767,-0.48185191683979883,-3.0336337799400437e-16,-2.663122388742539e-16,0.01034937460804623,-4.8959799081235087e-17,5.691191110520362e-18
1.0500000000000007,0.9872055175434409,0.5243819560872374,8.47864323472833e-16,1.0002278740361643e-15,-0.9872055175434404,-0.5243819560872367,-2.9983749593066005e-16,-2.539935833203205e-16,0.009878586873391786,-5.138490953259823e-17,5.743749534392529e-18
1.0600000000000007,0.9431620324414758,0.5774911396178479,8.623636323416482e-16,9.990790766855917e-16,-0.9431620324414753,-0.5774911396178473,-2.954748708393263e-16,-2.4507438256279447e-16,0.009498870291707772,-5.378621020616354e-17,5.786948315728159e-18
1.0700000000000007,0.9083638461312834,0.6409531032050211,8.753738270197789e-16,9.951346074211666e-16,-0.908363846131283,-0.6409531032050204,-2.9067863024268317e-16,-2.3568884702806155e-16,0.00921135758878888,-5.615280291795744e-17,5.82015556607735e-18
1.0800000000000007,0.882916349389498,0.7144875817169865,8.867705721008035e-16,1.0020401522226647e-15,-0.8829163493894976,-0.7144875817169856,-2.8544566049033693e-16,-2.1077347488379496e-16,0.009016823644700205,-5.86140986486731e-17,5.842152389280831e-18
1.0900000000000007,0.8668882329807603,0.7977599235195403,8.977399229671107e-16,1.0149352797954992e-15,-0.8668882329807598,-0.7977599235195394,-2.783396625071203e-16,-1.755706535867148e-16,0.008915668582398173,-6.124706347405083e-17,5.852004324974468e-18
1.1000000000000008,0.8603098045656214,0.8903809163486515,9.088925357170972e-16,1.0250915121062377e-15,-0.8603098045656209,-0.8903809163486506,-2.68559898272369e-16,-1.3929826534352223e-16,0.008907902235799691,-6.40392349576475e-17,5.849084331504543e-18
1.1100000000000008,0.8631714492054239,0.9919068922222353,9.199503303318665e-16,1.0329646253618474e-15,-0.8631714492054233,-0.9919068922222344,-2.562590275339719e-16,-1.0104082711297568e-16,0.008993130125580529,-6.698513606179576e-17,5.8326134253170224e-18
1.1200000000000008,0.8754222463531882,1.1018401047213364,9.307050624457654e-16,1.0393209168628942e-15,-0.8754222463531877,-1.1018401047213355,-2.41488062814098e-16,-6.018507112668142e-17,0.00917054105325721,-7.008614538818476e-17,5.8019530110321476e-18
1.1300000000000008,0.8969687543582696,1.2196296828074382,9.410412275943298e-16,1.0397341947624326e-15,-0.8969687543582691,-1.2196296828074373,-2.2423480200731847e-16,-2.1472245207495486e-17,0.009438896690569857,-7.329888218798301e-17,5.756665767755704e-18
1.1400000000000008,0.9276740014084071,1.3446729439351244,9.504331051717387e-16,1.0376884282585702e-15,-0.9276740014084064,-1.3446729439351235,-2.049393935766169e-16,1.892249181371484e-17,0.009796523309415614,-7.661667122559243e-17,5.696199202781645e-18
1.1500000000000008,0.967356697455524,1.4763170256606553,9.58736547006788e-16,1.0352533357433426e-15,-0.9673566974555233,-1.4763170256606544,-1.836361185595348e-16,6.339438506999122e-17,0.010241305747285396,-8.005477488916491e-17,5.6199030974080436e-18
1.1600000000000008,1.0157906764047897,1.6138609120664529,9.660180821865556e-16,1.0331145066987387e-15,-1.015790676404789,-1.6138609120664515,-1.6012805801027182e-16,1.1277783790443698e-16,0.010770683763904327,-8.363549149976195e-17,5.527118715749832e-18
1.1700000000000008,1.0727045842261957,1.7565578616064765,9.724031511836903e-16,1.0291306123016138e-15,-1.072704584226195,-1.7565578616064752,-1.3415762832181846e-16,1.647198275180883e-16,0.011381650936623966,-8.735864489807388e-17,5.417343446754668e-18
1.1800000000000008,1.1377818277862743,1.903618266082565,9.778014828519366e-16,1.0197630311078503e-15,-1.1377818277862737,-1.9036182660825636,-1.0571567793324944e-16,2.1513381689932621e-16,0.012070756255707723,-9.11868612898735e-17,5.2903694393554784e-18
1.1900000000000008,1.210660800616694,2.05421327696575,9.817946521271781e-16,1.0049894776348367e-15,-1.2106608006166932,-2.0542132769657493,-7.518281158312347e-17,2.6385698500514053e-16,0.012834108871648067,-9.508277126465375e-17,5.146071633528988e-18
1.2000000000000008,1.2909354322882303,2.2074785577586873,9.840019316106923e-16,9.911048488975377e-16,-1.2909354322882296,-2.2074785577586864,-4.2918909151221185e-17,3.1805753472880765e-16,0.01366738582254437,-9.907558650442727e-17,4.983939397108543e-18
1.2100000000000009,1.3781560425893904,2.3625178727685254,9.846778635591854e-16,9.73226686364719e-16,-1.3781560425893897,-2.3625178727685237,-8.567458723400083e-18,3.7214823006450443e-16,0.014565842321900797,-1.0314273035405308e-16,4.803828888709593e-18
1.2200000000000009,1.4718304559360853,2.5184074327743895,9.835881399708323e-16,9.542660251007178e-16,-1.4718304559360844,-2.5184074327743877,2.7662429215875005e-17,4.291939334505127e-16,0.015524325062154069,-1.0729132372857383e-16,4.605539438338576e-18
1.2300000000000009,1.5714254232761382,2.674200678346262,9.80797771811146e-16,9.27375879998474e-16,-1.571425423276137,-2.6742006783462604,6.587320389874818e-17,4.809577628640874e-16,0.016537288657625236,-1.1145473167461513e-16,4.389520406375987e-18
1.2400000000000009,1.6763683638746645,2.828933422074693,9.757140066528485e-16,8.95419615135585e-16,-1.6763683638746634,-2.8289334220746913,1.0537372226329487e-16,5.304056803789907e-16,0.01759881526775945,-1.1559638038827347e-16,4.156133682759141e-18
1.2500000000000009,1.7860494306945138,2.9816293295177982,9.68072985038834e-16,8.619374404029667e-16,-1.7860494306945127,-2.9816293295177965,1.4582086081481641e-16,5.814897773195664e-16,0.018702637419442156,-1.1971713696072655e-16,3.9055210552311305e-18
1.260000000000001,1.899823900810844,3.1313057147271417,9.579728525731252e-16,8.299354561719786e-16,-1.8998239008108426,-3.13130571472714,1.8728023979088438e-16,6.373699939310057e-16,0.01984216402352518,-1.238479258463706e-16,3.6377415101579424e-18
1.270000000000001,2.0170148898648788,3.2769796222569756,9.457884833436386e-16,7.948514924480689e-16,-2.0170148898648774,-3.276979622256974,2.301119429104185e-16,6.922194456374254e-16,0.021010509555594335,-1.279682389404554e-16,3.3534235570935e-18
1.280000000000001,2.136916386982942,3.41767416360176,9.314249295761334e-16,7.596082614280827e-16,-2.1369163869829406,-3.4176741636017582,2.7408728601487535e-16,7.492285060786441e-16,0.022200526344590688,-1.320878885385081e-16,3.0530169188977885e-18
1.290000000000001,2.2587966038765126,3.552425072085096,9.15074411810706e-16,7.217316575053642e-16,-2.2587966038765113,-3.5524250720850943,3.1930295131368794e-16,8.049253752997973e-16,0.023404839885314846,-1.3618744370069236e-16,2.737383946199534e-18
1.300000000000001,2.381901629013428,3.680287436378304,8.966754161069707e-16,6.735451018796676e-16,-2.3819016290134267,-3.6802874363783022,3.655160350398421e-16,8.488616170422578e-16,0.02461588706227293,-1.4015953630388063e-16,2.408568542237191e-18
1.310000000000001,2.5054593748277347,3.800342569101602,8.754417592906529e-16,6.190987740337752e-16,-2.5054593748277334,-3.8003425691016,4.1151244860410383e-16,8.84255667218421e-16,0.025825957142963183,-1.439348815276795e-16,2.068806877090754e-18
1.320000000000001,2.6286838029366804,3.911704963397958,8.510474989452385e-16,5.718563737394109e-16,-2.6286838029366786,-3.9117049633979564,4.564999138934331e-16,9.277906832138035e-16,0.027027235368772596,-1.4759294992428208e-16,1.7186684525189587e-18
1.330000000000001,2.750779409280675,4.013529287013747,8.244789506092062e-16,5.18183115861519e-16,-2.7507794092806734,-4.013529287013745,5.013491603577785e-16,9.618098886385669e-16,0.028211848941393548,-1.510586395287705e-16,1.3604991836035576e-18
1.340000000000001,2.870945948020531,4.105017360314044,7.953310481297853e-16,4.631736808560905e-16,-2.870945948020529,-4.105017360314042,5.451677921540208e-16,9.91699805958922e-16,0.029371915172338267,-1.5430981787474898e-16,9.962990713513574e-19
1.350000000000001,2.9883833699423916,4.185425061849749,7.637220954416424e-16,4.0997620446409277e-16,-2.98838336994239,-4.185425061849747,5.876609315172978e-16,1.0204177375200753e-15,0.03049959153299924,-1.57354685200844e-16,6.279730455651444e-19
1.360000000000001,3.1022969480628992,4.254069102618971,7.300587230970488e-16,3.591834235213991e-16,-3.1022969480628975,-4.25406910261897,6.288431865390335e-16,1.0491185651668932e-15,0.03158712731306358,-1.6020977636969898e-16,2.569973432322687e-19
1.370000000000001,3.211902560124741,4.3103336080714545,6.947652720027429e-16,3.1366329514340096e-16,-3.2119025601247393,-4.310333608071453,6.688376767051754e-16,1.0812139809537795e-15,0.03262691656624075,-1.6292186350618925e-16,-1.1553315235628886e-19
1.380000000000001,3.316432094756817,4.353676445230766,6.584986238932079e-16,2.6311487171200794e-16,-3.316432094756815,-4.353676445230764,7.080804705582613e-16,1.1015908821672942e-15,0.03361155199451547,-1.6541261586074214e-16,-4.864357495622529e-19
1.390000000000001,3.415138945275532,4.3836352310951945,6.208728851690147e-16,2.0608181860200009e-16,-3.41513894527553,-4.383635231095193,7.455279373567091e-16,1.1069861653900069e-15,0.03453387939580953,-1.6758260476279172e-16,-8.51995836977281e-19
1.400000000000001,3.5073035524567144,4.399832957762835,5.814002962988794e-16,1.5288390058103512e-16,-3.5073035524567127,-4.3998329577628335,7.799252356085046e-16,1.1110364060732597e-15,0.035387052275351216,-1.694517019898085e-16,-1.2103441420655971e-18
1.410000000000001,3.5922389551444747,4.401983169543811,5.406215696684448e-16,1.0030992295890362e-16,-3.592238955144473,-4.40198316954381,8.114346295070663e-16,1.1080882200144777e-15,0.03616458619853615,-1.7099606805259989e-16,-1.5586712478495024e-18
1.420000000000001,3.6692963053171592,4.389894627710001,4.987203764987264e-16,5.70765525339268e-17,-3.6692963053171574,-4.3898946277099995,8.396649511286547e-16,1.1106916682944295e-15,0.03686041244294688,-1.7229619892615284e-16,-1.8961656003203618e-18
1.430000000000001,3.737870302235018,4.363475399520161,4.566924099017639e-16,1.350263563570725e-17,-3.737870302235016,-4.363475399520159,8.654565533153875e-16,1.1047281876819476e-15,0.037468930489809996,-1.7331454391876584e-16,-2.22007242986101e-18
1.440000000000001,3.797404498582537,4.322736309778769,4.145173266825457e-16,-2.899048317681023e-17,-3.797404498582535,-4.322736309778767,8.882262598324652e-16,1.0917779902229018e-15,0.037985058880834574,-1.7402912423052335e-16,-2.5279596264076975e-18
1.450000000000001,3.847396430123816,4.26779369546782,3.7231197837511266e-16,-6.172785402709943e-17,-3.847396430123814,-4.267793695467819,9.075967680596674e-16,1.0843464660396873e-15,0.0384042839554184,-1.7452182868200353e-16,-2.819357304791115e-18
1.460000000000001,3.8874025193445734,4.19887140696102,3.3100762724847876e-16,-9.1894690762236e-17,-3.8874025193445716,-4.198871406961018,9.244167256808104e-16,1.0718629329782807e-15,0.03872270597594755,-1.7478594566555356e-16,-3.092299463329204e-18
1.470000000000001,3.917042702891622,4.116302003010672,2.907631507480014e-16,-1.1559757153208689e-16,-3.9170427028916204,-4.11630200301067,9.384480874680429e-16,1.0595486114087576e-15,0.038937082145660946,-1.7485939916626805e-16,-3.3456023898631374e-18
1.480000000000001,3.9360047323712988,4.020527091113659,2.5209281520705583e-16,-1.446631843086419e-16,-3.936004732371297,-4.020527091113659,9.499723260034395e-16,1.029140143001674e-15,0.03904486602460849,-1.74632419458298e-16,-3.575264242849822e-18
1.490000000000001,3.9440480982629125,3.9120967700310945,2.1433648988341843e-16,-1.6710778488350016e-16,-3.944048098262911,-3.9120967700310936,9.57506139877448e-16,9.984813633370812e-16,0.039044242854890804,-1.741434282335569e-16,-3.780310684353779e-18
1.500000000000001,3.941007527371192,3.7916682236822328,1.7803726782119756e-16,-1.8415212275906996e-16,-3.9410075273711906,-3.791668223682232,9.614054479384203e-16,9.659660389754816e-16,0.0389341603955561,-1.7341613211166855e-16,-3.9596807555039815e-18
1.5100000000000011,3.9267960136434388,3.6600034229620824,1.4357039025359698e-16,-1.9219289073035257e-16,-3.9267960136434374,-3.6600034229620815,9.61839445556789e-16,9.371505231821643e-16,0.03871435486436293,-1.7251835074310004e-16,-4.1132977198221155e-18
1.5200000000000011,3.9014073418653257,3.5179655389336375,1.1161828950644672e-16,-1.972761403185215e-16,-3.9014073418653243,-3.5179655389336366,9.5948998395771e-16,9.032583754440288e-16,0.038385371259740494,-1.7144395326719731e-16,-4.239850754975673e-18
1.5300000000000011,3.8649180298653993,3.3665144006674383,8.222309800999264e-17,-2.0554720590956059e-16,-3.864918029865398,-3.3665144006674375,9.541388389035569e-16,8.551990770319936e-16,0.03794857770531948,-1.7011264769554642e-16,-4.336809509896516e-18
1.5400000000000011,3.817488653650673,3.206701017476143,5.483813287643132e-17,-2.0740125453895374e-16,-3.817488653650672,-3.206701017476142,9.447234757049516e-16,8.072448125870293e-16,0.03740617350987592,-1.6856258523911126e-16,-4.403995215906238e-18
1.5500000000000012,3.759364525160592,3.039661094301397,2.9882755677314976e-17,-2.0413626166790842e-16,-3.7593645251605907,-3.039661094301396,9.316406511576857e-16,7.5775424703259e-16,0.036761190598693774,-1.6681665860403983e-16,-4.441089310683253e-18
1.5600000000000012,3.6908756884316527,2.8666075549331747,7.612901758055944e-18,-1.9586110598698962e-16,-3.6908756884316514,-2.8666075549331738,9.15093171972699e-16,7.069555875221506e-16,0.036017488016975886,-1.6489779322304987e-16,-4.4479554403732165e-18
1.5700000000000012,3.612436204617257,2.688822098667518,-1.1750210181533761e-17,-1.8771291351395015e-16,-3.612436204617256,-2.6888220986675173,8.952862620326262e-16,6.478467580326211e-16,0.035179739256432994,-1.6276914908682533e-16,-4.4236219703004656e-18
1.5800000000000012,3.5245427015566713,2.507645827469949,-2.849527536001898e-17,-1.7368761084724083e-16,-3.52454270155667,-2.507645827469949,8.717392799520842e-16,5.89386594749989e-16,0.03425341221250918,-1.6046778385499342e-16,-4.3685486983615965e-18
1.5900000000000012,3.427772169427417,2.3244689925644164,-4.2312152886372194e-17,-1.5641173615248843e-16,-3.4277721694274157,-2.3244689925644164,8.448698694037729e-16,5.282374357497414e-16,0.033244741641685296,-1.5800076593586742e-16,-4.2828304124743925e-18
1.6000000000000012,3.3227789904280054,2.1407199214899113,-5.317016383099684e-17,-1.3747345042463151e-16,-3.322778990428004,-2.1407199214899113,8.147383094836975e-16,4.628997994094149e-16,0.032160694055670534,-1.5535993794583289e-16,-4.1665936200804724e-18
1.6100000000000012,3.210291197393847,1.9578531989177232,-6.119268225130159e-17,-1.1969042189400982e-16,-3.2102911973938455,-1.9578531989177228,7.812564484306478e-16,3.900324140894125e-16,0.031008925061673707,-1.525073072579192e-16,-4.019715354195273e-18
1.6200000000000012,3.091105963708984,1.7773371867434233,-6.675947819476191e-17,-9.691967163149889e-17,-3.0911059637089826,-1.7773371867434233,7.440265591963474e-16,3.1844354808374805e-16,0.029797729234857094,-1.494787502646826e-16,-3.843295349172874e-18
1.6300000000000012,2.9660843347892016,1.6006409809827733,-6.962960007473671e-17,-6.290072911992128e-17,-2.9660843347892003,-1.6006409809827733,7.035269810188414e-16,2.5706532656962416e-16,0.028535982689917798,-1.4638338446798245e-16,-3.6395477778484986e-18
1.6400000000000012,2.836145219715343,1.4292209146194725,-6.898926334097363e-17,-1.925968033969598e-17,-2.836145219715342,-1.4292209146194725,6.610405372335167e-16,2.0487822262393331e-16,0.027233078602796668,-1.4331476151561458e-16,-3.4107612570831794e-18
1.6500000000000012,2.7022586702144564,1.26450672657336,-6.4256867822577e-17,3.406027178004695e-17,-2.7022586702144555,-1.26450672657336,6.176309535805757e-16,1.620739940933883e-16,0.025898856019947073,-1.4036536021077064e-16,-3.1590777152559527e-18
1.6600000000000013,2.565438483033752,1.1078875271704498,-5.4900754966672286e-17,8.369077541427449e-17,-2.565438483033751,-1.1078875271704498,5.742789770840872e-16,1.1193134923709884e-16,0.024543522380454614,-1.3747862059079573e-16,-2.8849203170091333e-18
1.6700000000000013,2.426734170729645,0.9606976996869354,-4.1712027097273636e-17,1.3055273823854085e-16,-2.4267341707296444,-0.9606976996869352,5.302807830532185e-16,5.613965246953427e-17,0.023177570264525254,-1.3461209321758927e-16,-2.589023076086923e-18
1.6800000000000013,2.2872223548917705,0.8242028854985043,-2.531886724648799e-17,1.8364092810992987e-16,-2.28722235489177,-0.8242028854985041,4.851602888515258e-16,6.534658132386306e-18,0.021811688969300337,-1.3182597385445556e-16,-2.2733446540775193e-18
1.6900000000000013,2.147997644720647,0.6995862068866486,-5.433713593693753e-18,2.372681861313584e-16,-2.1479976447206464,-0.6995862068866484,4.396130380381251e-16,-4.3267955255774846e-17,0.02045667159837574,-1.2912010088681078e-16,-1.9393487776585063e-18
1.7000000000000013,2.010163072550115,0.5879348864447633,1.7662425831719858e-17,2.8813754426837986e-16,-2.0101630725501147,-0.5879348864447631,3.936608359349171e-16,-9.623332151167365e-17,0.01912331843350165,-1.2646376663810122e-16,-1.5885169571600148e-18
1.7100000000000013,1.874820166218296,0.4902274251130128,4.3401536459182075e-17,3.436112629184404e-16,-1.8748201662182955,-0.4902274251130126,3.4704124302320133e-16,-1.41880351282664e-16,0.01782233743438004,-1.2391404932130787e-16,-1.223613683728799e-18
1.7200000000000013,1.743058746006049,0.4073215020001713,7.197026915976341e-17,3.9509269771842167e-16,-1.7430587460060485,-0.4073215020001711,3.005142017310801e-16,-1.897575813018041e-16,0.016564242783903164,-1.2143811751929795e-16,-8.467194646312075e-19
1.7300000000000013,1.615946541040918,0.3399427581979688,1.0271943375189654e-16,4.464700759685623e-16,-1.6159465410409177,-0.3399427581979686,2.53858672993557e-16,-2.3499660015881534e-16,0.015359252460242528,-1.1904665203219253e-16,-4.601712181798359e-19
1.7400000000000013,1.4945187264697002,0.28867462366517116,1.3543163241703155e-16,4.917462117469485e-16,-1.4945187264697,-0.28867462366517094,2.0733794299364096e-16,-2.8388426835158823e-16,0.01421718587259471,-1.166901480622611e-16,-6.596175317671143e-20
1.7500000000000013,1.3797674882007094,0.25394934089261284,1.6933944777749736e-16,5.397939418812783e-16,-1.3797674882007092,-0.2539493408926126,1.6059196904394338e-16,-3.2447344947932606e-16,0.013147362642872315,-1.1442186608640531e-16,3.326998716097422e-19
1.7600000000000013,1.2726317264808984,0.2360403314326264,2.0459285393659557e-16,5.91952655159774e-16,-1.2726317264808982,-0.23604033143262618,1.1443189139580116e-16,-3.5502684130162685e-16,0.012158503650040018,-1.1230876985765076e-16,7.327154576362761e-19
1.7700000000000014,1.173987012886398,0.23505604149518486,2.414550127700707e-16,6.450271675742715e-16,-1.1739870128863978,-0.23505604149518458,6.97569862667476e-17,-3.7836324608375635e-16,0.011258635476095197,-1.1038684490061498e-16,1.1310973782893938e-18
1.7800000000000014,1.0846359173628055,0.2509353907248049,2.798599810300299e-16,6.814556326507147e-16,-1.0846359173628053,-0.2509353907248047,2.7112707925947902e-17,-4.133170560152002e-16,0.010454999401974616,-1.0851365056530042e-16,1.5257080417024404e-18
1.7900000000000014,1.005298822663153,0.28344493405571886,3.180768601437856e-16,7.147776545474452e-16,-1.0052988226631527,-0.28344493405571863,-1.4799725584504603e-17,-4.439128836713008e-16,0.00975396609718151,-1.0669419343338688e-16,1.9134970131451084e-18
1.8000000000000014,0.9366053428224866,0.3321778303084494,3.558279320064238e-16,7.431962137426173e-16,-0.9366053428224864,-0.33217783030844916,-5.563524166278761e-17,-4.714864915321633e-16,0.009160957128088794,-1.0491807374370744e-16,2.2914815154009456e-18
1.8100000000000014,0.8790864601215485,0.3965546930800378,3.9269089786741385e-16,7.921978689823832e-16,-0.8790864601215482,-0.3965546930800375,-9.520872031333075e-17,-4.67139579413238e-16,0.00868037437628254,-1.0344042904570187e-16,2.6553991521063307e-18
1.8200000000000014,0.8331674912902074,0.4758263796582017,4.307090127513477e-16,8.458808608529372e-16,-0.8331674912902072,-0.47582637965820124,-1.3060262117738167e-16,-4.474496861006632e-16,0.00831553840975119,-1.0235172165462144e-16,3.001682204327873e-18
1.8300000000000014,0.7991619884654053,0.5690787523483413,4.702178377754774e-16,8.888265130669976e-16,-0.7991619884654051,-0.5690787523483408,-1.607546059632091e-16,-4.286412964261499e-16,0.008068636786179547,-1.0158583324436775e-16,3.3274535851673467e-18
1.8400000000000014,0.7772666736498636,0.6752394239523,5.100537201487651e-16,9.271192066624026e-16,-0.7772666736498632,-0.6752394239522995,-1.8624739510146425e-16,-4.036875899400489e-16,0.0079406831892453,-1.0114219947786607e-16,3.62966939956065e-18
1.8500000000000014,0.7675574971379535,0.7930864754111391,5.497427486934916e-16,9.58109240632853e-16,-0.7675574971379532,-0.7930864754111384,-2.0693956546506799e-16,-3.7467947329303053e-16,0.007931488206007932,-1.0099712972504226e-16,3.905308495529806e-18
1.8600000000000014,0.7699869006253337,0.9212590287205863,5.886039584540387e-16,9.83112446237721e-16,-0.7699869006253334,-0.9212590287205856,-2.2290212819238706e-16,-3.401469290207684e-16,0.008039642373741376,-1.0114108635056417e-16,4.151554312078947e-18
1.8700000000000014,0.784382346914073,1.058269586533366,6.26146404758263e-16,9.977750283717587e-16,-0.7843823469140726,-1.0582695865333651,-2.340594461610755e-16,-3.0495583622191496e-16,0.008262511986895052,-1.0151977754918745e-16,4.366079132442593e-18
1.8800000000000014,0.8104461638032489,1.202518507505282,6.615115441130658e-16,1.0044883620664704e-15,-0.8104461638032483,-1.202518507505281,-2.4080612969119475e-16,-2.6566602763847547e-16,0.008596248445754484,-1.0210867140166576e-16,4.546290156746809e-18
1.8900000000000015,0.847756780346627,1.3523101275496403,6.941501036633225e-16,1.0008151592998201e-15,-0.8477567803466265,-1.3523101275496394,-2.431718617672205e-16,-2.244737760720294e-16,0.00903581141200345,-1.028612224739881e-16,4.68972077413972e-18
1.9000000000000015,0.8957713796050648,1.5058703106454687,7.233331421558377e-16,9.88821478776947e-16,-0.8957713796050641,-1.5058703106454678,-2.4139250365468125e-16,-1.7896724615163189e-16,0.009575005815581796,-1.0375385656407006e-16,4.793971474435312e-18
1.9100000000000015,0.9538299691363707,1.661365372343589,7.485976977500408e-16,9.598057438590108e-16,-0.9538299691363701,-1.6613653723435882,-2.3545195497092096e-16,-1.400538027612679e-16,0.010206532701497439,-1.0466791713782767e-16,4.8578635519116115e-18
1.9200000000000015,1.021160864936538,1.8169221898337589,7.686968007493505e-16,9.126286316725988e-16,-1.0211608649365373,-1.816922189833758,-2.2637362049205185e-16,-1.0977625414322884e-16,0.010922053737054342,-1.0547212128900336e-16,4.8807361680699874e-18
1.9300000000000015,1.0968875672408833,1.9706492901159258,7.823937254068185e-16,8.680663289064562e-16,-1.0968875672408827,-1.970649290115925,-2.1527791406009072e-16,-6.671738963127444e-17,0.011712269026761332,-1.0624421304660956e-16,4.8616972237996524e-18
1.9400000000000015,1.1800369888110207,2.1206586875917823,7.905465515594255e-16,8.239508289525593e-16,-1.18003698881102,-2.1206586875917814,-2.0114051097751266e-16,-1.4011585214777898e-17,0.012567007706347222,-1.0703417531022934e-16,4.8003750169890596e-18
1.9500000000000015,1.2695489783184,2.2650882242646984,7.937253888447991e-16,7.720193973587128e-16,-1.2695489783183993,-2.2650882242646975,-1.8333283924177357e-16,3.906170365971307e-17,0.013475330610974175,-1.0780520025231123e-16,4.696893820917077e-18
1.9600000000000015,1.3642870634091837,2.402124150054352,7.916597906508936e-16,7.17270570879954e-16,-1.364287063409183,-2.4021241500543513,-1.6216920032455552e-16,9.687350241381083e-17,0.014425644138182567,-1.0856708366339483e-16,4.551651881861385e-18
1.9700000000000015,1.4630503202323755,2.5300236678289214,7.845807204272006e-16,6.59174426297336e-16,-1.4630503202323748,-2.5300236678289205,-1.3751802789302916e-16,1.5740149927769764e-16,0.015405824255681445,-1.0931693300200294e-16,4.365689637816198e-18
1.9800000000000015,1.5645862588764785,2.647137157945139,7.726467336832608e-16,5.983149725648493e-16,-1.5645862588764778,-2.647137157945138,-1.094527242158488e-16,2.2051702091997898e-16,0.01640334944025258,-1.1005414802749694e-16,4.1402769244381515e-18
1.9900000000000015,1.6676045975393456,2.751929790648784,7.560568731768945e-16,5.167478998582393e-16,-1.667604597539345,-2.751929790648783,-7.805195129870703e-17,2.622511250262486e-16,0.017405441179233913,-1.10573693867931e-16,3.879306641186997e-18
2.0000000000000013,1.7707917826042945,2.8430022318730916,7.33283613388728e-16,4.362897883529488e-16,-1.7707917826042938,-2.8430022318730908,-4.5667831905318994e-17,3.0590866375593013e-16,0.018399210522760976,-1.1089565117810647e-16,3.58564133133007e-18
2.010000000000001,1.8728260973655348,2.9192596321463085,7.050209141709474e-16,3.560734609699823e-16,-1.8728260973655342,-2.9192596321463076,-1.2210904820325955e-17,3.4997270621965775e-16,0.01937194493932693,-1.1102799048985045e-16,3.2621786779752716e-18
2.020000000000001,1.9724074143890287,2.9801362040711696,6.718141735545681e-16,2.7469207786625885e-16,-1.972407414389028,-2.9801362040711687,2.225542275129793e-17,3.9046550837862774e-16,0.020311573254537585,-1.1095223136933702e-16,2.912721556669579e-18
2.0300000000000007,2.0683054879346767,3.025063771127385,6.340230095738986e-16,1.8760581588780348e-16,-2.068305487934676,-3.025063771127384,5.729524520479434e-17,4.202186077291292e-16,0.021206605184699086,-1.1059324252006831e-16,2.541921984585996e-18
2.0400000000000005,2.1593530764787756,3.053632256498171,5.915407967895895e-16,1.1173731539437827e-16,-2.1593530764787747,-3.05363225649817,9.183196943768081e-17,4.588418531768037e-16,0.02204622226571596,-1.1005594363796937e-16,2.1527876278505973e-18
2.0500000000000003,2.2444549922461046,3.0656265058417733,5.458814586646867e-16,3.932848342623824e-17,-2.2444549922461037,-3.0656265058417724,1.2675757758061732e-16,4.936878984407504e-16,0.022820393990309006,-1.0934316530300018e-16,1.7502751306843963e-18
2.06,2.322599793715186,3.061025642202491,4.976765696394303e-16,-3.4907462773922653e-17,-2.322599793715185,-3.06102564220249,1.6167561431456068e-16,5.18305586422993e-16,0.023519982800095707,-1.0840042070230856e-16,1.3394198042254236e-18
2.07,2.3928703040462236,3.040000243138712,4.469944980021565e-16,-1.0901835794112771e-16,-2.3928703040462227,-3.040000243138712,1.9561344326616213e-16,5.338477652662492e-16,0.024136836965834834,-1.0718971052124325e-16,9.251625353569026e-19
2.0799999999999996,2.4544528599164956,3.0029073837825973,3.9408287902539456e-16,-1.660704327189777e-16,-2.4544528599164948,-3.0029073837825973,2.2780069465654643e-16,5.597870506329776e-16,0.024663870516770537,-1.0585156402369735e-16,5.108410199545502e-19
2.0899999999999994,2.506645208497451,2.9502836446180294,3.4077724358409313e-16,-2.180201389032188e-16,-2.5066452084974506,-2.9502836446180294,2.59393373468096e-16,5.785921564843381e-16,0.025095129546107906,-1.0437924668762117e-16,1.0202354008870157e-19
2.099999999999999,2.5488629875371736,2.8828362029064585,2.8760064187185413e-16,-2.625511032025249e-16,-2.548862987537173,-2.8828362029064585,2.8976915381970047e-16,5.940792959616959e-16,0.02542584438896139,-1.0279610927875769e-16,-2.969095820123528e-19
2.109999999999999,2.5806447410185465,2.8014321450446844,2.3524678133855473e-16,-3.0466891412518804e-16,-2.580644741018546,-2.8014321450446844,3.187280926637763e-16,5.992663447601278e-16,0.025652467339721253,-1.0106646266043269e-16,-6.810778210740808e-19
2.1199999999999988,2.601655440450811,2.707086153569559,1.8386700971531545e-16,-3.481007294504669e-16,-2.6016554404508105,-2.707086153569559,3.4542483707294346e-16,5.886785890878134e-16,0.025772695745815068,-9.91106100749387e-17,-1.045250008096168e-18
2.1299999999999986,2.611688499329501,2.6009467369517227,1.3324358613472742e-16,-3.767762056476548e-16,-2.6116884993295004,-2.6009467369517227,3.685734921871184e-16,5.822270326970299e-16,0.02578548048253131,-9.702632600485496e-17,-1.3864163090890146e-18
2.1399999999999983,2.6106662854867873,2.4842812422987497,8.470878589595464e-17,-3.916171542086648e-16,-2.610666285486787,-2.4842812422987497,3.889053147477999e-16,5.781167415021545e-16,0.02569102003145223,-9.489575203332898e-17,-1.7014436597671329e-18
2.149999999999998,2.598639158455377,2.3584598861462402,3.9380379579151105e-17,-4.023649770867899e-16,-2.5986391584553767,-2.3584598861462402,4.069111626548438e-16,5.65136514820979e-16,0.02549074057862324,-9.269682126878749e-17,-1.986815754900666e-18
2.159999999999998,2.575783078768196,2.224938615758403,-2.6572491318049176e-18,-4.0637159757842135e-16,-2.5757830787681955,-2.224938615758403,4.219682956991425e-16,5.463797339875208e-16,0.02518726234024298,-9.043601532529305e-17,-2.2395383928875264e-18
2.1699999999999977,2.5423958138003973,2.0852412906551288,-4.1075748905914446e-17,-4.0644041035288813e-16,-2.542395813800397,-2.0852412906551288,4.3380760939252423e-16,5.184262644154845e-16,0.024784352749978367,-8.808930265390142e-17,-2.456609266991387e-18
2.1799999999999975,2.4988918090213548,1.9409414844143453,-7.584479344762524e-17,-3.9613752794202767e-16,-2.4988918090213543,-1.9409414844143453,4.4186013908683337e-16,4.896300624238188e-16,0.02428686735714614,-8.570537666728807e-17,-2.6361717992750823e-18
2.1899999999999973,2.4457958155240784,1.7936440255720776,-1.0632467704643482e-16,-3.783395264601872e-16,-2.445795815524078,-1.7936440255720776,4.464060483318051e-16,4.567239369086746e-16,0.02370067931582993,-8.330177492526886e-17,-2.7763606742923252e-18
2.199999999999997,2.3837353673597765,1.6449664873963181,-1.3221031244920663e-16,-3.512361732479694e-16,-2.3837353673597765,-1.6449664873963181,4.473879252491973e-16,4.2371480207997837e-16,0.023032598455710974,-8.092398341886866e-17,-2.8764786784533346e-18
2.209999999999997,2.313432213267773,1.4965208341757767,-1.5305337887971297e-16,-3.1315985093762954e-16,-2.313432213267773,-1.4965208341757767,4.451351297252617e-16,3.9180230555320676e-16,0.022290281024093486,-7.863036270068783e-17,-2.9356793045110283e-18
2.2199999999999966,2.235692817197575,1.3498954265999763,-1.6828952414989749e-16,-2.6864185427684675e-16,-2.235692817197575,-1.3498954265999763,4.4005984047361486e-16,3.5627965414772193e-16,0.021482131273730363,-7.643278165628465e-17,-2.953113265991279e-18
2.2299999999999964,2.1513980504113,1.206637581623245,-1.7783931099088554e-16,-2.1835112933027512e-16,-2.1513980504113,-1.206637581623245,4.3208710162541463e-16,3.1743023409744784e-16,0.020617196141908944,-7.434093398524783e-17,-2.928441400722638e-18
2.239999999999996,2.0614922048638733,1.0682368729646896,-1.8169452022411994e-16,-1.628998651079532e-16,-2.0614922048638733,-1.0682368729646896,4.211760580715446e-16,2.754525451774095e-16,0.019705054322267847,-7.23622536201595e-17,-2.8617239126112957e-18
2.249999999999996,1.966971462930799,0.9361093471947826,-1.799059723161419e-16,-1.0295665575355763e-16,-1.966971462930799,-0.9361093471947823,4.0730863233166887e-16,2.305788363602166e-16,0.018755701071550848,-7.050185901994651e-17,-2.7534250446371008e-18
2.259999999999996,1.8688719623484482,0.8115828173138167,-1.7258327667167824e-16,-3.9757110474354457e-17,-1.8688719623484482,-0.8115828173138164,3.9049056863704775e-16,1.8359101913424567e-16,0.017779430118674885,-6.876252480575873e-17,-2.6048839279268578e-18
2.2699999999999956,1.768257597424402,0.6958833809813565,-1.599431957439564e-16,2.335540439311981e-17,-1.768257597424402,-0.6958833809813563,3.708014732991647e-16,1.313111301116568e-16,0.01678671405296533,-6.711514136515616e-17,-2.4173931735688355e-18
2.2799999999999954,1.666207698156019,0.5901232942825398,-1.4250002768451838e-16,8.856914650002497e-17,-1.666207698156019,-0.5901232942825396,3.4801095388598777e-16,7.704614021787649e-17,0.01578808456223108,-6.55581106228765e-17,-2.1926364232295968e-18
2.289999999999995,1.5638047278721856,0.49529031431629666,-1.2051088845681908e-16,1.5785946846868566e-16,-1.5638047278721856,-0.49529031431629644,3.222252425959257e-16,2.4400883291052374e-17,0.01479401386973134,-6.41170888696494e-17,-1.932884966368074e-18
2.299999999999995,1.4621221374124167,0.41223860518406136,-9.402044654953708e-17,2.276619108380123e-16,-1.4621221374124167,-0.41223860518406114,2.9388350759268846e-16,-2.9447938358690556e-17,0.013814798682423841,-6.278594133268915e-17,-1.6405405340191583e-18
2.3099999999999947,1.3622125097240416,0.34168128239291845,-6.34083228482593e-17,2.9712302822470446e-16,-1.3622125097240416,-0.34168128239291823,2.6311445236578926e-16,-8.41081417630471e-17,0.012860447911767532,-6.155642764852027e-17,-1.3183527411181793e-18
2.3199999999999945,1.2650961231562827,0.2841846505252613,-2.909922860117285e-17,3.6538619280284065e-16,-1.2650961231562827,-0.2841846505252611,2.300718537922378e-16,-1.3917294743272347e-16,0.011940575363553346,-6.041830934798223e-17,-9.693955393917929e-19
2.3299999999999943,1.1717500547425674,0.24016416854210668,8.441022646804847e-18,4.3160279346934907e-16,-1.1717500547425674,-0.24016416854210645,1.9493356513087234e-16,-1.9422453190945367e-16,0.011064298515703999,-5.935949211420105e-17,-5.970391052869497e-19
2.339999999999994,1.0830979364904747,0.20988215655683234,4.871018934675288e-17,5.058913594342924e-16,-1.0830979364904747,-0.20988215655683207,1.5790027582430306e-16,-2.355508874432737e-16,0.010240144413834829,-5.848441671971675e-17,-2.0598065404685508e-19
2.349999999999994,1.0000004682602477,0.19344723761879676,9.221672991762338e-17,5.794437930341879e-16,-1.0000004682602477,-0.19344723761879642,1.2045844725100599e-16,-2.724564329876772e-16,0.009475963614870082,-5.78066135685323e-17,1.9973520407584383e-19
2.3599999999999937,0.9232467803409705,0.19081548824875408,1.385825152465512e-16,6.474523578069926e-16,-0.9232467803409705,-0.19081548824875375,8.306765275540193e-17,-3.09493535843454e-16,0.008778853000558175,-5.729361518090494e-17,6.163154621773496e-19
2.3699999999999934,0.8535467274742183,0.20179325242827295,1.8700788334823656e-16,7.105147750477739e-16,-0.8535467274742183,-0.20179325242827256,4.5710516469462935e-17,-3.446844395680672e-16,0.008155088166828198,-5.692630169996002e-17,1.0396846354356714e-18
2.3799999999999932,0.7915241839848116,0.2260415556951408,2.368261508383328e-16,7.676639852234742e-16,-0.7915241839848116,-0.22604155569514042,8.55952446719427e-18,-3.7740289079079524e-16,0.007610065973155307,-5.668435052680321e-17,1.4654135003524605e-18
